{
  "search_data": [
    {
      "name": "人民广场[地铁站]",
      "address": "地铁1号线,地铁2号线,地铁8号线",
      "longitude": 121.475465,
      "latitude": 31.232943,
      "geohash": "wtw3sjz9p6xf"
    },
    {
      "name": "上海人民广场",
      "address": "上海市黄浦区人民大道120号",
      "longitude": 121.4762,
      "latitude": 31.22967,
      "geohash": "wtw3sm0q087"
    },
    {
      "name": "人民广场[公交站]",
      "address": "112,112,123,123(区间),145,312,46(区间),49,952等12条线路",
      "longitude": 121.476929,
      "latitude": 31.229015,
      "geohash": "wtw3sm0f1w76"
    },
    {
      "name": "人民公园",
      "address": "上海市黄浦区南京西路231号",
      "longitude": 121.47322,
      "latitude": 31.23223,
      "geohash": "wtw3sjwhgjt"
    },
    {
      "name": "人民大舞台",
      "address": "上海市黄浦区九江路663~669",
      "longitude": 121.47797,
      "latitude": 31.23427,
      "geohash": "wtw3sq18ccg"
    },
    {
      "name": "人民广场(广东路)[公交站]",
      "address": "454,108(区间),167,312,318,108,537,隧道三线,930,980,隧道夜宵线",
      "longitude": 121.476868,
      "latitude": 31.23075,
      "geohash": "wtw3sm2u21vb"
    },
    {
      "name": "CAFE LUGO人民广场店",
      "address": "上海市黄浦区西藏中路336号华旭国际大厦",
      "longitude": 121.47602,
      "latitude": 31.23379,
      "geohash": "wtw3smbnh2m"
    },
    {
      "name": "人民广场(福州路)[公交站]",
      "address": "805,18,312,318,451,49,隧道三线,930,隧道夜宵线,新川专线",
      "longitude": 121.475833,
      "latitude": 31.232605,
      "geohash": "wtw3sm8p05d1"
    },
    {
      "name": "人民广场街道",
      "address": "上海市黄浦区 ",
      "longitude": 121.47848,
      "latitude": 31.23177,
      "geohash": "wtw3sm9fjxz"
    },
    {
      "name": "麻辣诱惑人民广场店",
      "address": "上海市黄浦区南京西路68号新世界城9层",
      "longitude": 121.47383,
      "latitude": 31.23468,
      "geohash": "wtw3snne1qk"
    }
  ]
}
